City_ID,City,Cloudiness,Country,Date,Humidity,Lat,Lng,Max Temp,Wind Speed
0,alofi,76,NU,1552377600,94,-19.06,-169.92,77.0,4.7
1,rikitea,64,PF,1552382168,100,-23.12,-134.97,78.39,19.48
2,ushuaia,40,AR,1552377600,70,-54.81,-68.31,42.8,17.22
3,mahibadhoo,0,MV,1552382168,99,3.78,72.97,84.29,16.46
4,torbay,90,CA,1552382165,100,47.66,-52.73,37.0,20.8
5,pevek,24,RU,1552382168,100,69.7,170.27,-23.49,4.61
6,chokurdakh,0,RU,1552382168,66,70.62,147.9,-14.72,9.98
7,anito,0,PH,1552382169,98,12.45,125.29,80.33,8.19
8,hasaki,20,JP,1552382022,58,35.73,140.83,57.2,8.05
9,butaritari,100,KI,1552382169,100,3.07,172.79,83.16,14.79
10,thamaga,20,BW,1552381200,42,-24.68,25.54,80.6,13.87
11,kodiak,90,US,1552382116,74,39.95,-94.76,41.0,6.73
12,cape town,75,ZA,1552381864,82,-33.93,18.42,71.01,9.17
13,yellowknife,90,CA,1552382057,92,62.45,-114.38,19.0,2.24
14,hermanus,68,ZA,1552382165,82,-34.42,19.24,69.01,4.0
15,new norfolk,75,AU,1552382133,71,-42.78,147.06,52.0,11.41
16,cabo san lucas,48,MX,1552381825,55,22.89,-109.91,71.01,5.99
17,la ciotat,0,FR,1552382139,49,43.17,5.6,54.0,3.36
18,bambous virieux,75,MU,1552382046,66,-20.34,57.76,87.01,5.82
19,bluff,88,AU,1552382171,77,-23.58,149.07,74.88,2.37
20,victoria,75,BN,1552379400,70,5.28,115.24,86.0,6.93
21,kaitangata,20,NZ,1552382055,84,-46.28,169.85,59.0,3.0
22,thibodaux,90,US,1552382171,82,29.8,-90.82,64.4,4.7
23,albany,90,US,1552382047,59,42.65,-73.75,33.8,12.75
24,saint-philippe,90,CA,1552381941,92,45.36,-73.48,26.6,3.36
25,labytnangi,88,RU,1552382172,93,66.66,66.39,13.28,10.65
26,atuona,32,PF,1552382172,99,-9.8,-139.03,82.53,15.79
27,punta arenas,40,CL,1552381988,75,-53.16,-70.91,42.8,17.22
28,butia,24,BR,1552378877,83,-21.88,-47.57,68.0,1.01
29,umm kaddadah,0,SD,1552382173,19,13.6,26.69,81.41,11.88
30,salym,44,RU,1552382173,85,60.06,71.48,38.52,9.53
31,horodyshche,0,UA,1552379400,44,50.76,29.29,39.2,8.95
32,baturaja,44,ID,1552382174,64,-4.12,104.17,88.92,10.54
33,ballina,75,IE,1552381984,86,54.11,-9.15,46.0,10.29
34,tupiza,8,BO,1552382174,75,-21.44,-65.72,32.76,1.81
35,baley,0,RU,1552382174,34,51.58,116.65,21.38,4.83
36,bredasdorp,92,ZA,1552382128,88,-34.53,20.04,69.01,2.24
37,lenger,0,KZ,1552379400,27,42.18,69.89,64.4,8.95
38,oparino,80,RU,1552382175,81,59.85,48.28,35.78,4.72
39,coquimbo,20,CL,1552377600,87,-29.95,-71.34,57.2,3.38
40,gopalpur,0,IN,1552382176,36,25.6,86.94,90.72,17.25
41,namibe,40,AO,1552377600,82,-15.19,12.15,68.0,2.93
42,sampit,76,ID,1552381933,88,-2.54,112.95,82.98,3.49
43,petropavlovsk-kamchatskiy,0,RU,1552377600,53,53.05,158.65,23.0,4.47
44,takoradi,24,GH,1552382176,92,4.89,-1.75,84.38,9.42
45,longyearbyen,40,NO,1552380600,64,78.22,15.63,1.4,5.82
46,kapaa,90,US,1552381703,78,22.08,-159.32,71.6,13.87
47,nagato,20,JP,1552382055,43,34.35,131.14,55.99,16.11
48,iqaluit,5,CA,1552381963,67,63.75,-68.52,-22.01,8.05
49,sibolga,64,ID,1552382114,72,1.74,98.78,81.68,2.37
50,college,90,US,1552382137,73,64.86,-147.8,30.99,2.93
51,olinda,75,EC,1552382124,83,-2.03,-79.75,80.6,3.36
52,east london,20,ZA,1552381200,74,-33.02,27.91,80.6,12.75
53,jamestown,32,AU,1552382179,72,-33.21,138.6,62.46,7.85
54,pangkalanbuun,76,ID,1552382014,79,-2.68,111.62,84.24,4.38
55,darhan,0,MN,1552382180,22,49.49,105.92,38.39,6.51
56,sangmelima,76,CM,1552382180,73,2.93,11.98,78.75,2.93
57,kahului,75,US,1552382034,88,20.89,-156.47,71.6,7.63
58,kanniyakumari,0,IN,1552382180,96,8.08,77.57,85.01,17.81
59,bandarbeyla,8,SO,1552382180,100,9.49,50.81,78.93,8.41
60,gboko,12,NG,1552382180,62,7.32,9.0,89.01,13.0
61,caravelas,56,BR,1552382181,100,-17.73,-39.27,82.71,11.21
62,katsuura,40,JP,1552380884,70,33.93,134.5,60.8,13.87
63,puerto ayora,0,EC,1552382181,100,-0.74,-90.35,75.38,4.38
64,mattru,76,SL,1552382181,83,7.62,-11.83,80.69,4.16
65,yakovlevka,88,RU,1552382181,76,44.43,133.47,31.32,2.37
66,bouca,64,CF,1552382182,41,6.51,18.28,92.03,5.17
67,faanui,12,PF,1552382182,100,-16.48,-151.75,82.08,12.33
68,magrath,90,CA,1552377600,55,49.42,-112.86,33.8,21.92
69,tiksi,8,RU,1552382182,70,71.64,128.87,1.13,16.02
70,atar,0,MR,1552382182,37,20.52,-13.05,66.29,6.73
71,busselton,76,AU,1552382180,33,-33.64,115.35,78.01,8.86
72,port hedland,36,AU,1552379400,59,-20.31,118.58,91.4,16.11
73,upernavik,36,GL,1552381945,100,72.79,-56.15,-3.33,9.75
74,shahrud,36,IR,1552382183,29,36.42,54.97,56.61,4.94
75,okhotsk,76,RU,1552382183,100,59.36,143.24,14.54,4.27
76,kudat,75,MY,1552377600,62,6.89,116.84,86.0,8.05
77,homer,1,US,1552381875,59,59.64,-151.54,35.01,17.22
78,kruisfontein,36,ZA,1552382184,94,-34.0,24.73,66.56,4.61
79,codrington,8,AU,1552381980,61,-28.95,153.24,84.2,5.82
80,bereda,75,ES,1552382127,87,43.27,-7.54,55.99,19.46
81,vaini,40,IN,1552377600,18,15.34,74.49,93.2,9.17
82,slave lake,40,CA,1552377600,79,55.28,-114.77,26.6,4.7
83,conway,20,US,1552382084,81,35.09,-92.44,52.0,10.29
84,bethel,90,US,1552378740,79,60.79,-161.76,28.4,10.29
85,sao filipe,0,CV,1552382185,87,14.9,-24.5,73.31,15.79
86,indian head,12,CA,1552382165,72,50.53,-103.67,21.99,4.0
87,san jose,32,PH,1552382072,74,15.79,120.99,81.45,1.48
88,narsaq,80,GL,1552380600,68,60.91,-46.05,24.8,17.22
89,carnarvon,0,ZA,1552382186,40,-30.97,22.13,69.3,12.44
90,calama,0,CL,1552377600,45,-22.46,-68.93,48.2,14.99
91,bonavista,8,CA,1552381339,88,48.65,-53.11,35.01,11.01
92,alice springs,20,AU,1552379400,17,-23.7,133.88,100.4,14.99
93,hobyo,8,SO,1552382187,65,5.35,48.53,85.19,16.91
94,hobart,75,AU,1552382133,71,-42.88,147.33,52.0,11.41
95,barrow,88,AR,1552382187,84,-38.31,-60.23,60.44,3.6
96,nikolskoye,75,RU,1552382135,79,59.7,30.79,28.99,11.18
97,mataura,36,NZ,1552381807,92,-46.19,168.86,59.0,4.0
98,lagdo,0,CM,1552381200,13,9.06,13.67,93.2,5.84
99,saldanha,44,PT,1552382188,59,41.42,-6.55,51.48,3.94
100,gao,0,ML,1552382188,23,16.28,-0.04,75.96,13.56
101,praia da vitoria,75,PT,1552382104,93,38.73,-27.07,55.0,23.62
102,manyana,75,AU,1552382143,73,-35.26,150.51,75.99,14.99
103,kulhudhuffushi,8,MV,1552382188,100,6.62,73.07,83.48,9.19
104,haines junction,24,CA,1552382188,71,60.75,-137.51,9.68,2.71
105,vryburg,0,ZA,1552382189,47,-26.96,24.73,81.14,22.84
106,hithadhoo,36,MV,1552382189,100,-0.6,73.08,83.16,9.75
107,port elizabeth,1,US,1552381986,48,39.31,-74.98,41.0,9.17
108,valparaiso,1,US,1552381929,85,41.47,-87.06,30.2,2.82
109,sarankhola,0,BD,1552382189,61,22.31,89.79,90.14,5.73
110,ancud,68,CL,1552377600,100,-41.87,-73.83,44.6,3.36
111,lompoc,1,US,1552381905,66,34.64,-120.46,55.0,5.82
112,kununurra,20,AU,1552379400,37,-15.77,128.74,98.6,3.36
113,chitungwiza,0,ZW,1552382190,43,-18.01,31.07,78.66,9.19
114,rapid valley,1,US,1552381998,67,44.06,-103.15,35.6,10.42
115,rongcheng,0,CN,1552382135,70,37.16,122.42,41.0,15.9
116,bakaly,92,RU,1552382190,96,55.18,53.8,34.74,11.21
117,mahebourg,75,MU,1552382046,66,-20.41,57.7,87.01,5.82
118,koslan,76,RU,1552382191,79,63.46,48.9,31.91,3.71
119,cherskiy,64,RU,1552382191,65,68.75,161.3,-8.73,2.26
120,mishelevka,88,RU,1552382191,56,52.86,103.17,35.82,3.83
121,lata,8,IN,1552382191,68,30.78,78.62,52.74,1.92
122,alakurtti,20,RU,1552381629,80,66.96,30.34,12.99,4.72
123,la romana,20,DO,1552377600,83,18.43,-68.97,73.4,4.7
124,wyoming,1,US,1552382169,92,42.91,-85.71,27.0,3.36
125,san quintin,0,PH,1552382192,57,17.54,120.52,81.59,4.38
126,ajdabiya,92,LY,1552382192,34,30.75,20.22,70.47,5.17
127,provideniya,0,RU,1552382192,100,64.42,-173.23,2.79,18.92
128,hilo,90,US,1552381946,93,19.71,-155.08,71.01,5.82
129,antalaha,44,MG,1552382193,97,-14.9,50.28,81.99,2.71
130,isangel,48,VU,1552382193,100,-19.55,169.27,80.69,13.44
131,lincoln,90,GB,1552381923,93,53.23,-0.54,52.0,25.28
132,lavrentiya,12,RU,1552382193,100,65.58,-170.99,0.45,31.79
133,zhigansk,64,RU,1552382194,68,66.77,123.37,7.34,9.19
134,avarua,92,CK,1552379400,94,-21.21,-159.78,75.2,9.17
135,tarko-sale,24,RU,1552382194,95,64.92,77.78,21.11,4.61
136,bushehr,0,IR,1552379400,52,28.97,50.84,68.0,6.93
137,gourdon,0,FR,1552382183,81,44.74,1.38,51.01,4.7
138,visnes,75,NO,1552382156,86,59.36,5.22,39.99,29.97
139,khani,0,GE,1552379400,30,41.96,42.96,68.0,21.92
140,norman wells,75,CA,1552377600,78,65.28,-126.83,15.8,16.11
141,sioux lookout,5,CA,1552377600,78,50.1,-91.92,17.6,6.93
142,lasa,20,CY,1552382153,72,34.92,32.53,68.0,11.41
143,hambantota,20,LK,1552382195,91,6.12,81.12,85.01,11.65
144,vila franca do campo,75,PT,1552382193,87,37.72,-25.43,57.2,17.22
145,buala,0,SB,1552382196,87,-8.15,159.59,83.21,7.63
146,airai,76,TL,1552382196,75,-8.93,125.41,77.09,2.15
147,georgetown,12,GY,1552382078,85,6.8,-58.16,74.66,5.39
148,navrongo,0,GH,1552382197,12,10.89,-1.09,88.74,15.23
149,new ulm,1,US,1552382187,79,44.31,-94.46,25.0,10.29
150,flinders,75,AU,1552382064,73,-34.58,150.85,77.0,14.99
151,marawi,48,PH,1552382140,79,8.0,124.29,81.0,2.37
152,shurugwi,0,ZW,1552382197,50,-19.67,30.0,80.01,10.09
153,tuatapere,0,NZ,1552381807,92,-46.13,167.69,59.0,4.0
154,seoul,1,KR,1552380600,26,37.57,126.98,42.8,2.24
155,port alfred,0,ZA,1552382018,83,-33.59,26.89,84.0,3.0
156,ankang,12,CN,1552382198,43,32.73,108.99,60.3,2.04
157,san patricio,68,PY,1552382198,94,-26.98,-56.83,70.83,2.04
158,ust-nera,24,RU,1552382198,58,64.57,143.24,-14.67,2.15
159,charters towers,20,AU,1552382199,50,-20.07,146.27,85.01,9.19
160,north platte,90,US,1552381899,93,41.12,-100.77,39.2,6.93
161,bodaybo,68,RU,1552382199,61,57.85,114.2,22.23,4.05
162,karoi,20,ZW,1552382199,54,-16.82,29.68,81.18,7.96
163,lebu,0,ET,1552382199,24,8.96,38.73,78.08,8.19
164,ulladulla,75,AU,1552382143,73,-35.36,150.48,71.6,14.99
165,tasiilaq,80,GL,1552380600,79,65.61,-37.64,19.4,3.36
166,chimichagua,0,CO,1552382200,78,9.26,-73.81,78.71,2.59
167,cidreira,56,BR,1552382200,96,-30.17,-50.22,68.4,8.19
168,atbasar,32,KZ,1552382200,92,51.81,68.36,34.16,11.21
169,constitucion,68,MX,1552382200,62,23.99,-104.67,52.34,3.04
170,karratha,80,AU,1552382102,28,-20.74,116.85,98.37,10.2
171,geraldton,40,CA,1552377600,76,49.72,-86.95,-4.01,3.36
172,honavar,48,IN,1552382201,72,14.28,74.45,84.74,6.73
173,thompson,5,CA,1552377600,85,55.74,-97.86,12.2,3.36
174,vincennes,1,US,1552381914,68,38.68,-87.53,35.01,6.93
175,sola,90,FI,1552379280,85,62.78,29.36,21.2,13.87
176,shingu,20,JP,1552377600,44,33.72,135.99,59.0,11.41
177,areka,8,ET,1552382202,33,7.07,37.71,81.99,2.71
178,pasighat,76,IN,1552382202,74,28.06,95.33,63.86,0.58
179,dikson,64,RU,1552382202,90,73.51,80.55,5.67,14.45
180,rio gallegos,0,AR,1552377600,86,-51.62,-69.22,37.4,9.17
181,sitka,92,US,1552382149,97,37.17,-99.65,46.0,7.0
182,avera,1,US,1552382129,100,33.19,-82.53,53.6,5.5
183,arlit,0,NE,1552382203,46,18.74,7.39,73.13,7.85
184,ponta do sol,12,BR,1552382203,87,-20.63,-46.0,62.55,4.38
185,jiuquan,8,CN,1552382203,72,39.73,98.49,34.34,2.93
186,bosaso,0,SO,1552377600,69,11.28,49.18,82.4,13.87
187,khatanga,68,RU,1552382204,88,71.98,102.47,8.01,3.71
188,kavieng,64,PG,1552382204,100,-2.57,150.8,82.71,10.76
189,tautira,75,PF,1552381983,88,-17.73,-149.15,75.2,1.12
190,laguna,44,MX,1552382204,65,27.52,-110.01,62.51,4.16
191,whitehorse,20,CA,1552382106,67,60.72,-135.06,23.0,10.29
192,san pedro,92,AR,1552381693,95,-33.68,-59.66,61.0,1.99
193,baiyin,0,CN,1552377600,13,36.55,104.13,51.8,6.71
194,orlik,80,RU,1552382207,68,52.51,99.83,18.99,3.94
195,goderich,68,CA,1552382188,80,43.74,-81.71,28.99,5.17
196,bilma,0,NE,1552382207,14,18.69,12.92,83.79,10.31
197,blind river,1,CA,1552379760,85,46.19,-82.96,14.0,7.18
198,podgornoye,92,RU,1552382208,86,57.79,82.64,32.94,7.96
199,mar del plata,0,AR,1552382208,100,-46.43,-67.52,47.61,7.07
200,harper,90,US,1552382196,93,30.3,-99.24,60.01,5.82
201,tuktoyaktuk,76,CA,1552382208,100,69.44,-133.03,-1.17,17.47
202,gornopravdinsk,88,RU,1552382209,82,60.06,69.92,38.7,8.97
203,toyooka,75,JP,1552377600,100,35.55,134.82,51.8,4.7
204,severo-kurilsk,76,RU,1552382210,100,50.68,156.12,27.59,26.87
205,ribeira grande,75,PT,1552379400,76,38.52,-28.7,55.4,17.22
206,karaton,40,ID,1552381989,74,-6.34,106.1,82.4,6.93
207,constantine,75,DZ,1552379400,81,36.36,6.61,46.4,2.24
208,bathsheba,90,BB,1552377600,88,13.22,-59.52,71.6,16.11
209,esperance,20,TT,1552381276,94,10.24,-61.45,72.0,5.17
210,clyde river,90,CA,1552381200,75,70.47,-68.59,-18.41,2.37
211,pangnirtung,20,CA,1552382212,61,66.15,-65.72,-21.38,3.83
212,chuy,88,UY,1552382212,92,-33.69,-53.46,68.31,10.54
213,saint george,75,GR,1552382003,63,39.45,22.34,61.0,6.93
214,natal,40,BR,1552377600,83,-5.81,-35.21,78.8,5.82
215,greensboro,1,US,1552382103,56,36.07,-79.79,46.4,8.75
216,ulaangom,32,MN,1552382213,75,49.98,92.07,27.41,2.82
217,batagay-alyta,0,RU,1552382090,54,67.8,130.41,-12.69,2.82
218,chaman,8,AF,1552382214,92,30.92,66.46,49.73,4.61
219,castelo branco,0,PT,1552382214,86,39.82,-7.5,52.61,3.38
220,pyapon,0,MM,1552382214,43,16.29,95.68,95.04,1.92
221,malindi,0,KE,1552381980,77,-3.22,40.12,85.46,8.63
222,pacific grove,40,US,1552382190,76,36.62,-121.92,52.0,4.7
223,namalenga,36,TZ,1552382214,92,-10.95,39.1,82.13,3.71
224,dwarka,40,IN,1552382108,32,28.58,77.04,80.6,8.05
225,hofn,92,IS,1552382215,100,64.25,-15.21,37.71,37.49
226,zeya,80,RU,1552382215,69,53.74,127.27,24.08,6.06
227,puerto barrios,40,GT,1552377600,100,15.72,-88.58,75.2,0.13
228,takhatgarh,76,IN,1552382215,32,25.32,73.0,81.23,5.73
229,saskylakh,48,RU,1552382216,80,71.97,114.09,-1.8,3.04
230,diamantino,48,BR,1552382216,92,-14.4,-56.44,73.35,3.15
231,maragogi,20,BR,1552382123,100,-9.01,-35.22,73.8,1.59
232,byron bay,8,AU,1552381980,83,-28.65,153.62,84.2,2.24
233,hede,0,SE,1552382178,57,60.45,15.49,24.01,4.7
234,norrkoping,0,SE,1552378800,62,58.59,16.18,24.8,5.82
235,fort nelson,75,CA,1552377600,47,58.81,-122.69,33.8,10.29
236,umba,0,RU,1552382216,81,66.69,34.34,21.6,7.74
237,bhuban,32,IN,1552382217,55,20.88,85.83,87.39,4.16
238,rocha,88,UY,1552382156,94,-34.48,-54.34,63.27,8.19
239,jambi,56,ID,1552382217,82,-1.6,103.62,86.76,4.38
240,yashkino,75,RU,1552379400,86,55.87,85.43,28.4,13.42
241,port moresby,75,PG,1552377600,94,-9.47,147.16,77.0,17.22
242,pedasi,0,PA,1552382218,87,7.53,-80.03,75.15,18.81
243,gushikawa,20,JP,1552381987,48,26.35,127.87,69.8,12.75
244,luanda,75,AO,1552381200,70,-8.83,13.24,86.0,2.24
245,broken hill,0,AU,1552377600,26,-31.97,141.45,78.8,9.17
246,qaanaaq,48,GL,1552382218,100,77.48,-69.36,-4.28,5.84
247,te anau,0,NZ,1552382218,74,-45.41,167.72,56.79,4.16
248,liwale,24,TZ,1552382219,50,-9.8,37.92,87.26,4.83
249,wageningen,90,NL,1552382212,70,51.98,5.66,46.99,23.04
250,norfolk,1,US,1552382214,58,36.85,-76.29,48.2,10.31
251,ilulissat,68,GL,1552380600,60,69.22,-51.1,5.0,1.12
252,stepnyak,12,KZ,1552382219,96,52.83,70.79,31.68,13.0
253,saint anthony,1,US,1552381965,72,43.97,-111.68,24.8,5.82
254,hovd,0,NO,1552382169,39,63.83,10.7,30.2,21.92
255,hami,0,CN,1552382220,35,42.84,93.51,57.11,0.92
256,shahr-e babak,36,IR,1552382220,57,30.12,55.12,50.22,8.19
257,barrhead,40,CA,1552377600,68,54.12,-114.4,24.8,4.7
258,bud,0,NO,1552382119,73,62.91,6.91,37.99,12.75
259,berdigestyakh,56,RU,1552381957,63,62.1,126.7,11.07,4.72
260,vestmannaeyjar,75,IS,1552381200,56,63.44,-20.27,41.0,25.28
261,guerrero negro,76,MX,1552382221,100,27.97,-114.04,54.72,12.33
262,bako,0,NG,1552382221,56,9.68,6.4,88.11,6.06
263,iranshahr,20,IR,1552377600,26,27.21,60.69,71.6,9.17
264,castro,88,CL,1552377600,100,-42.48,-73.76,44.6,3.36
265,petrivka,48,UA,1552382222,75,48.39,37.78,38.21,8.41
266,port blair,40,IN,1552377600,52,11.67,92.75,87.8,10.29
267,porbandar,0,IN,1552377600,23,21.64,69.61,86.0,9.17
268,fortuna,0,ES,1552382195,54,38.18,-1.13,61.0,5.82
269,doha,0,QA,1552379400,16,25.29,51.53,78.8,6.93
270,meadow lake,44,CA,1552382223,80,54.13,-108.44,21.29,3.15
271,isiro,0,CD,1552382223,51,2.77,27.62,87.93,3.04
272,ust-kuyga,0,RU,1552382223,65,70.0,135.55,-9.18,6.17
273,mizan teferi,56,ET,1552382224,53,6.99,35.58,79.56,1.92
274,awjilah,0,LY,1552382224,40,29.14,21.3,71.64,10.2
275,luderitz,0,NA,1552382224,90,-26.65,15.16,63.36,11.21
276,alta floresta,92,BR,1552382224,98,-9.87,-56.08,70.43,2.26
277,guabito,76,PA,1552382077,75,9.5,-82.61,75.0,1.01
278,ladario,32,PT,1552382118,98,40.7,-7.74,48.99,5.99
279,ponnani,40,IN,1552379400,39,10.77,75.93,95.0,13.87
280,iguape,92,BR,1552382225,100,-24.7,-47.56,72.36,2.26
281,miles city,1,US,1552382168,92,46.41,-105.84,21.99,5.82
282,vardo,1,US,1552382224,47,39.62,-77.74,39.2,18.34
283,herat,40,AF,1552380900,38,34.35,62.22,60.8,5.82
284,vero beach,1,US,1552382178,93,27.64,-80.4,72.0,4.83
285,gigmoto,8,PH,1552382226,94,13.78,124.39,80.73,4.16
286,arraial do cabo,56,BR,1552382226,100,-22.97,-42.02,76.46,3.04
287,doka,0,SD,1552382226,31,13.52,35.76,95.81,4.72
288,pisco,0,PE,1552377600,83,-13.71,-76.2,73.4,1.81
289,nanortalik,88,GL,1552382226,100,60.14,-45.24,31.19,13.67
290,dingle,0,PH,1552382227,38,11.0,122.67,88.92,9.75
291,port-cartier,40,CA,1552377600,85,50.03,-66.88,24.8,2.24
292,kiama,75,AU,1552382207,73,-34.67,150.86,75.99,14.99
293,visby,20,SE,1552382136,50,57.64,18.3,33.01,14.99
294,basco,1,US,1552382137,69,40.33,-91.2,33.01,5.82
295,taitung,75,TW,1552379400,56,22.76,121.15,71.6,4.7
296,ngawi,64,ID,1552382228,80,-7.4,111.45,83.88,5.39
297,richards bay,80,ZA,1552382228,83,-28.77,32.06,77.81,6.85
298,agadir,90,MA,1552381200,100,30.42,-9.58,53.6,3.36
299,tazovskiy,44,RU,1552382018,100,67.47,78.7,9.68,4.72
300,kahramanmaras,75,TR,1552381844,71,37.58,36.93,57.0,2.24
301,half moon bay,1,US,1552382221,87,37.46,-122.43,52.0,17.22
302,peniche,20,PT,1552382170,87,39.36,-9.38,53.01,9.17
303,hounde,56,BF,1552382229,23,11.5,-3.52,80.24,13.11
304,souillac,0,FR,1552382125,70,45.6,-0.6,48.0,5.82
305,houston,90,US,1552382076,93,29.76,-95.37,66.99,4.7
306,carbonia,0,IT,1552382107,85,39.17,8.53,55.99,11.41
307,miri,0,NG,1552382229,24,10.31,9.75,88.61,4.5
308,giresun,0,TR,1552377000,45,40.91,38.39,64.4,2.24
309,saint-augustin,0,FR,1552382124,65,44.83,-0.61,46.99,10.29
310,dubbo,0,AU,1552379400,22,-32.25,148.6,78.8,13.87
311,bayshore gardens,1,US,1552382210,100,27.43,-82.59,68.0,3.36
312,belaya gora,0,RU,1552382230,68,68.54,146.19,-15.39,5.39
313,namwala,68,ZM,1552382230,90,-15.75,26.45,72.18,7.96
314,novo aripuana,92,BR,1552382230,94,-5.12,-60.38,75.11,2.15
315,ola,0,RU,1552382231,95,59.58,151.3,11.61,4.72
316,hamilton,90,BM,1552381615,88,32.3,-64.78,66.2,12.75
317,ustye,76,RU,1552382231,100,58.76,27.79,25.34,15.23
318,kant,0,KG,1552379400,86,42.89,74.85,57.2,4.47
319,libreville,40,GA,1552377600,83,0.39,9.45,82.4,4.7
320,san cristobal,75,EC,1552382105,81,-0.39,-78.55,55.4,1.12
321,santa lucia,5,IT,1552377300,31,39.93,9.66,50.0,16.11
322,naze,12,NG,1552382233,88,5.43,7.07,84.96,5.95
323,rodeo,88,MX,1552382233,63,25.18,-104.56,56.03,2.26
324,lancaster,20,US,1552382036,55,40.04,-76.31,36.0,8.05
325,kenai,1,US,1552382224,68,60.55,-151.26,33.8,16.11
326,biltine,0,TD,1552382234,17,14.53,20.93,93.74,11.65
327,hongjiang,88,CN,1552382234,64,27.21,109.83,66.96,1.92
328,oksfjord,75,NO,1552382131,92,70.24,22.35,30.2,19.46
329,davila,75,PH,1552377600,70,18.47,120.58,84.2,6.93
330,vanderhoof,0,CA,1552382235,71,54.02,-124.02,24.48,5.61
331,brae,20,GB,1552378800,86,60.4,-1.35,42.8,20.8
332,nouakchott,0,MR,1552379400,17,18.08,-15.98,66.2,8.05
333,cambridge,90,GB,1552382053,76,52.2,0.12,50.0,23.04
334,lima,0,PE,1552381927,88,-12.06,-77.04,72.0,6.93
335,mitsamiouli,20,KM,1552381200,66,-11.38,43.28,89.6,14.99
336,molteno,92,ZA,1552382236,100,-31.4,26.36,57.83,9.19
337,eureka,90,US,1552382108,100,40.8,-124.16,46.99,4.7
338,manika,0,IN,1552382236,25,23.82,84.4,94.05,14.34
339,jalingo,12,NG,1552382236,18,10.21,12.82,91.89,7.63
340,vetluga,92,RU,1552382237,90,57.85,45.78,35.28,6.73
341,beboto,0,TD,1552382237,21,8.27,16.94,92.66,4.38
342,mackay,1,CA,1552377600,58,53.65,-115.58,30.2,6.93
343,morehead,1,US,1552381307,59,38.18,-83.43,37.4,4.7
344,pozhva,76,RU,1552382237,97,59.09,56.08,35.78,14.45
345,waipawa,88,NZ,1552382056,84,-39.94,176.59,63.0,3.04
346,krasnoarmeysk,40,RU,1552381510,63,56.12,38.15,32.0,11.18
347,ostrovnoy,0,RU,1552382238,89,68.05,39.51,21.96,12.44
348,nelson bay,64,AU,1552382158,69,-32.72,152.14,78.8,9.17
349,deloraine,0,CA,1552382238,78,49.18,-100.5,20.07,11.43
350,kaeo,0,NZ,1552382109,99,-35.1,173.78,64.0,9.64
351,taoudenni,0,ML,1552382238,23,22.68,-3.98,67.59,12.77
352,rio grande,92,BR,1552382239,90,-32.03,-52.1,73.08,15.01
353,fukue,40,JP,1552382046,58,35.03,136.69,55.99,8.05
354,uribia,20,CO,1552382239,76,11.71,-72.27,75.29,14.12
355,puerto escondido,0,MX,1552382239,100,15.86,-97.07,82.31,5.39
356,lora del rio,0,ES,1552382236,76,37.66,-5.53,63.0,2.24
357,gloversville,90,US,1552382230,92,43.05,-74.34,32.0,9.17
358,kendari,92,ID,1552382240,72,-3.99,122.52,83.61,3.38
359,talnakh,32,RU,1552382240,83,69.49,88.39,5.04,8.41
360,miramar,20,CR,1552382208,68,10.09,-84.73,71.6,20.8
361,zemetchino,0,RU,1552382240,97,53.5,42.62,32.31,11.43
362,lhokseumawe,36,ID,1552382241,100,5.18,97.15,83.34,6.96
363,port lincoln,0,AU,1552382241,90,-34.72,135.86,62.78,10.76
364,salemi,40,IT,1552382186,66,37.82,12.8,57.0,32.21
365,nome,90,US,1552382237,82,30.04,-94.42,66.99,4.7
366,tshikapa,44,CD,1552382241,83,-6.42,20.79,80.55,2.93
367,sompeta,20,IN,1552382242,81,18.93,84.6,85.28,2.37
368,nouadhibou,0,MR,1552377600,35,20.93,-17.03,69.8,16.11
369,nanyamba,75,MZ,1552377600,79,-10.69,39.81,84.2,20.8
370,aalen,0,DE,1552382239,69,48.84,10.09,46.0,6.93
371,gat,0,SN,1552381200,13,14.69,-16.54,78.8,14.99
372,siljan,90,NO,1552382213,79,59.29,9.71,27.0,3.36
373,voi,8,KE,1552382242,36,-3.4,38.57,90.86,6.62
374,leningradskiy,0,RU,1552382243,78,69.38,178.42,-17.82,10.31
375,taltal,36,CL,1552382243,100,-25.41,-70.49,51.84,1.36
376,barugo,80,PH,1552382243,91,11.32,124.74,81.14,7.4
377,conakry,0,GN,1552381200,65,9.52,-13.7,80.6,4.7
378,camacupa,24,AO,1552382243,98,-12.02,17.48,72.45,3.94
379,fairbanks,90,US,1552382209,73,64.84,-147.72,30.2,2.93
380,oshnaviyeh,0,IR,1552379400,37,37.04,45.1,53.6,11.41
381,union,90,US,1552382240,93,47.36,-123.1,43.0,5.82
382,kiruna,0,SE,1552378800,56,67.86,20.23,14.0,10.29
383,waiuku,24,NZ,1552382203,82,-37.25,174.73,69.01,4.7
384,priego de cordoba,0,ES,1552382227,66,37.44,-4.2,64.99,3.15
385,huntersville,1,US,1552382198,100,35.41,-80.84,48.99,7.29
386,port hardy,75,CA,1552377600,100,50.7,-127.42,33.8,3.36
387,marienburg,0,DE,1552382166,75,52.12,9.98,44.01,10.29
388,erzin,75,TR,1552382164,72,36.95,36.2,63.0,4.7
389,pembroke,1,CA,1552382209,62,45.82,-77.11,21.2,14.99
390,kem,0,UG,1552382246,24,2.68,33.77,93.78,12.21
391,broome,90,GB,1552382226,76,52.47,1.45,50.0,23.04
392,limpapa,20,PH,1552377600,62,7.12,121.91,86.0,5.82
393,grindavik,90,IS,1552382152,100,63.84,-22.43,39.99,27.51
394,linxia,20,CN,1552382247,23,35.6,103.21,46.49,8.63
395,bay roberts,90,CA,1552382227,93,47.58,-53.28,37.0,11.41
396,hervey bay,40,AU,1552382108,69,-25.3,152.85,77.0,19.46
397,burnie,24,AU,1552382111,64,-41.05,145.91,53.01,8.01
398,severo-yeniseyskiy,88,RU,1552382247,70,60.37,93.04,29.84,8.3
399,coihaique,68,CL,1552377600,93,-45.58,-72.07,42.8,5.82
400,port augusta,0,AU,1552382242,60,-32.49,137.76,69.8,19.46
401,pointe-noire,75,CG,1552377600,88,-4.8,11.85,82.4,12.75
402,yulara,0,AU,1552377600,12,-25.24,130.99,105.8,9.17
403,mezhdurechensk,92,RU,1552382248,76,53.69,88.07,31.01,4.72
404,churapcha,20,RU,1552382248,63,62.0,132.43,8.82,2.59
405,mahmudia,75,RO,1552381200,93,45.09,29.09,39.2,10.29
406,snasa,0,NO,1552377000,78,64.25,12.38,10.4,17.22
407,powell river,90,CA,1552382224,86,49.84,-124.52,39.2,2.24
408,beloha,12,MG,1552382249,44,-25.17,45.06,89.19,17.92
409,dunedin,0,NZ,1552381907,74,-45.87,170.5,62.01,4.0
410,brodnica,0,PL,1552382225,57,53.26,19.4,42.01,13.0
411,butterworth,75,MY,1552379400,59,5.4,100.37,93.2,10.29
412,tura,0,IN,1552382250,48,25.52,90.21,81.81,6.96
413,mosquera,40,CO,1552377600,87,4.71,-74.23,55.4,2.24
414,trairi,64,BR,1552382250,100,-3.28,-39.27,78.39,15.23
415,maposeni,75,TZ,1552377600,73,-10.58,35.4,77.0,2.71
416,huacho,64,PE,1552382026,92,-11.11,-77.61,67.68,3.71
417,uchaly,36,RU,1552382250,80,54.32,59.38,37.04,11.21
418,teahupoo,75,PF,1552381983,88,-17.83,-149.27,75.2,1.12
419,tessalit,0,ML,1552382251,19,20.2,1.01,67.86,9.19
420,dabola,0,GN,1552382251,28,10.74,-11.11,79.11,6.85
421,prince rupert,90,CA,1552379400,93,54.32,-130.32,37.4,6.93
422,gravdal,75,NO,1552382240,86,59.79,5.78,42.01,29.97
423,sungai besar,75,MY,1552377600,50,3.68,100.99,95.0,6.93
424,kavaratti,0,IN,1552382252,99,10.57,72.64,84.87,9.64
425,ayan,56,TR,1552382252,46,40.67,33.6,52.38,8.63
426,naifaru,0,MV,1552382252,100,5.44,73.37,83.88,12.33
427,moron,68,VE,1552382252,96,10.49,-68.2,65.16,3.38
428,chumikan,80,RU,1552382252,79,54.72,135.31,19.53,13.78
429,ribas do rio pardo,48,BR,1552382253,92,-20.45,-53.76,70.2,8.41
430,berlevag,40,NO,1552378800,62,70.86,29.09,24.8,14.99
431,pitmoaga,32,BF,1552382253,19,12.24,-1.88,82.31,14.0
432,ahipara,0,NZ,1552382109,99,-35.17,173.16,64.0,8.86
433,roald,0,NO,1552382244,51,62.58,6.12,39.99,21.92
434,kande,20,UG,1552381200,74,0.3,32.05,80.6,13.87
435,biak,80,ID,1552382254,90,-0.91,122.88,82.17,1.92
436,saint-pierre,0,FR,1552382225,56,48.95,4.24,45.0,19.46
437,cuamba,12,MZ,1552382255,88,-14.8,36.54,78.98,6.4
438,hailar,0,CN,1552382255,29,49.2,119.7,22.19,14.34
439,gidam,32,IN,1552382179,49,18.98,81.4,87.08,8.41
440,ixtapa,5,MX,1552382129,100,20.71,-105.21,73.99,2.71
441,srednekolymsk,80,RU,1552382255,74,67.46,153.71,0.18,2.37
442,barmer,88,IN,1552382255,21,25.74,71.4,81.72,6.06
443,elizabethton,1,US,1552382255,74,36.35,-82.21,39.99,4.16
444,tomatlan,8,MX,1552382256,89,19.93,-105.25,61.11,2.15
445,inverell,8,AU,1552382243,38,-29.78,151.11,77.0,1.01
446,ostersund,0,SE,1552378800,84,63.18,14.64,8.6,4.7
447,klaksvik,8,FO,1552380600,75,62.23,-6.59,41.0,8.05
448,tuyen quang,36,VN,1552382012,69,21.82,105.22,76.32,5.95
449,deputatskiy,0,RU,1552382257,64,69.3,139.9,-15.53,3.04
450,kutum,0,SD,1552382257,19,14.2,24.66,79.92,9.42
451,matongo,8,BI,1552382257,60,-3.07,29.61,78.75,2.48
452,chhatak,0,BD,1552382257,64,25.03,91.67,77.81,3.94
453,juneau,90,US,1552380780,86,58.3,-134.42,37.4,8.05
454,wiarton,20,CA,1552382215,79,44.74,-81.13,27.0,5.82
455,bulaevo,32,KZ,1552382258,94,54.91,70.44,32.85,14.67
456,shelburne,90,CA,1552382108,63,44.08,-80.2,28.4,13.87
457,georgiyevka,8,RU,1552382258,99,52.25,40.45,32.58,10.42
458,damietta,40,EG,1552377600,72,31.42,31.81,64.4,5.82
459,vao,80,EE,1552382258,85,59.1,26.19,24.39,11.32
460,itarema,68,BR,1552382259,95,-2.92,-39.92,76.68,5.17
461,vostok,20,RU,1552382259,72,46.45,135.83,30.87,2.71
462,maniitsoq,0,GL,1552382259,75,65.42,-52.9,2.25,4.72
463,westport,75,IE,1552382223,86,53.8,-9.52,46.0,10.29
464,kharp,88,RU,1552382259,92,66.82,65.8,13.41,10.42
465,ternate,40,PH,1552382157,55,14.29,120.72,91.4,9.17
466,jinji,24,CN,1552381661,52,22.16,112.49,78.01,5.61
467,zhangye,12,CN,1552382260,74,38.94,100.46,45.14,4.94
468,niamey,24,NE,1552382165,22,13.52,2.11,83.79,14.56
469,wanaka,0,NZ,1552382260,86,-44.7,169.14,51.12,1.92
470,asmara,24,ER,1552382260,65,15.34,38.93,75.69,3.6
471,morropon,32,PE,1552382260,93,-5.18,-79.97,64.76,1.7
472,hualmay,64,PE,1552382261,92,-11.1,-77.61,67.68,3.71
473,sao joao da barra,88,BR,1552382261,100,-21.64,-41.05,76.95,9.08
474,abha,40,SA,1552377600,42,18.22,42.5,69.8,9.17
475,port-gentil,40,GA,1552381200,74,-0.72,8.78,87.8,6.93
476,chippewa falls,1,US,1552382226,92,44.94,-91.39,15.01,9.31
477,barcelos,40,PT,1552381939,100,41.53,-8.62,51.01,2.24
478,mudkhed,0,IN,1552382262,27,19.15,77.51,96.93,6.62
479,lagoa,0,PT,1552382228,82,37.14,-8.45,66.99,4.7
480,xining,12,CN,1552382262,10,36.62,101.77,51.21,2.93
481,itamarandiba,32,BR,1552382262,91,-17.86,-42.86,66.83,3.15
482,fuerte olimpo,20,BR,1552382263,90,-21.04,-57.87,73.31,2.93
483,griffith,8,AU,1552378817,33,-34.29,146.06,75.2,14.99
484,mahajanga,75,MG,1552381200,83,-15.72,46.32,80.6,11.41
485,faya,40,SA,1552377600,42,18.39,42.45,69.8,9.17
486,qasigiannguit,68,GL,1552380600,60,68.82,-51.19,5.0,1.12
487,ossora,0,RU,1552382263,74,59.24,163.07,2.84,5.17
488,neftekamsk,80,RU,1552382264,91,56.1,54.26,34.29,10.2
489,miandoab,0,IR,1552377600,40,36.97,46.1,53.6,4.7
490,plettenberg bay,0,ZA,1552382264,93,-34.05,23.37,68.76,3.6
491,oranjemund,0,ZA,1552382264,97,-28.55,16.43,61.29,6.73
492,mandla,0,IN,1552382264,32,22.6,80.37,91.26,8.41
493,brownsville,40,US,1552382232,94,25.91,-97.49,73.4,11.41
494,borogontsy,56,RU,1552382265,68,62.67,131.17,9.41,2.71
495,korsakov,90,RU,1552379400,100,46.63,142.78,28.4,15.66
496,hargeysa,0,SO,1552377600,36,9.56,44.06,80.6,17.22
497,masyaf,40,SY,1552381200,63,35.06,36.34,66.2,11.41
498,jalu,0,LY,1552382266,38,29.03,21.55,72.54,8.41
499,beyneu,0,KZ,1552382266,62,45.32,55.19,57.83,4.5
500,cayenne,75,GF,1552379400,94,4.94,-52.33,73.4,1.12
501,porkhov,75,RU,1552379400,79,57.77,29.55,24.8,13.42
502,sorong,88,ID,1552382266,100,-0.86,131.25,78.89,3.94
503,kichera,80,RU,1552382267,80,55.93,110.1,17.24,4.27
504,sisimiut,56,GL,1552382267,66,66.94,-53.67,-5.31,1.92
505,muros,40,ES,1552382252,93,42.77,-9.06,55.0,3.36
506,selma,1,US,1552382018,100,36.57,-119.61,50.0,4.7
507,nabire,68,ID,1552382267,83,-3.36,135.5,74.21,0.92
508,soyo,75,AO,1552377600,70,-6.13,12.37,84.2,5.82
509,acapulco,5,MX,1552376520,73,16.86,-99.88,75.2,3.71
510,mmabatho,20,ZA,1552381200,50,-25.85,25.61,78.8,16.11
511,west plains,1,US,1552382162,70,36.73,-91.85,46.4,4.7
512,longhua,20,CN,1552382268,75,29.21,106.21,64.13,8.75
513,saraland,1,US,1552382240,87,30.82,-88.07,57.2,9.17
514,turukhansk,88,RU,1552382268,97,65.8,87.96,25.83,11.1
515,jacareacanga,88,BR,1552382269,97,-6.22,-57.76,71.24,2.37
516,hengshui,0,CN,1552382269,32,37.73,115.7,52.65,10.42
517,wadi maliz,40,TN,1552377600,58,36.47,8.55,57.2,8.05
518,lai,0,CN,1552382269,28,27.82,91.75,53.82,1.81
519,vrakhation,75,GR,1552382183,63,37.96,22.81,64.99,6.93
520,udachnyy,64,RU,1552382270,66,66.42,112.4,13.28,3.38
521,xuanhua,0,CN,1552382270,33,40.61,115.04,29.7,11.21
522,sestri levante,0,IT,1552382246,30,44.27,9.41,55.0,9.17
523,coahuayana,0,MX,1552382270,74,18.62,-100.35,56.88,1.92
524,hornepayne,0,CA,1552382270,83,49.22,-84.78,10.49,6.73
525,suhbaatar,56,MN,1552382271,33,50.23,106.21,38.97,9.53
526,lorengau,68,PG,1552382271,100,-2.02,147.27,78.75,11.54
527,la ronge,75,CA,1552377600,73,55.1,-105.3,26.6,4.7
528,ust-tsilma,12,RU,1552382271,81,65.44,52.15,32.4,3.38
529,cascais,20,PT,1552382224,87,38.7,-9.42,55.99,12.75
530,komsomolskiy,92,RU,1552382271,88,67.55,63.78,16.79,14.79
531,bethlehem,40,US,1552382270,55,40.62,-75.38,37.4,4.7
532,kaohsiung,40,TW,1552382101,57,22.62,120.31,77.0,10.29
533,palestina,75,EC,1552382236,83,-1.63,-79.98,80.6,3.36
534,tsaratanana,80,MG,1552382273,100,-16.8,47.65,75.15,6.4
535,nanchong,32,CN,1552382193,53,30.8,106.08,65.52,10.98
536,santiago de cao,40,PE,1552377600,83,-7.96,-79.24,71.6,5.82
537,teya,5,MX,1552382208,78,21.05,-89.07,77.0,11.41
538,gazanjyk,8,TM,1552382273,53,39.24,55.52,61.65,6.96
539,greenville,1,US,1552381980,61,34.85,-82.4,51.8,3.36
540,gamba,0,CN,1552382274,83,28.28,88.52,24.89,10.2
541,yar-sale,44,RU,1552382274,96,66.83,70.83,9.63,10.65
542,lethem,68,GY,1552382275,72,3.38,-59.8,78.75,12.1
543,oil city,90,US,1552382239,85,41.43,-79.71,27.0,5.82
544,nerchinskiy zavod,0,RU,1552382275,39,51.31,119.61,18.14,6.4
545,mafra,20,PT,1552382224,87,38.94,-9.33,55.99,12.75
546,the valley,20,AI,1552382213,78,18.22,-63.06,75.99,10.29
547,maumere,76,ID,1552382276,100,-8.63,122.22,76.46,4.61
548,kerema,88,PG,1552382276,96,-7.96,145.78,71.73,2.59
549,honiara,76,SB,1552382277,87,-9.43,159.96,78.53,2.48
550,oranjestad,20,AW,1552377600,78,12.52,-70.03,77.0,14.99
551,pundaguitan,24,PH,1552382277,95,6.37,126.17,81.86,14.0
552,beringovskiy,20,RU,1552382277,90,63.05,179.32,-1.22,21.27
553,comodoro rivadavia,0,AR,1552377600,70,-45.87,-67.48,48.2,8.75
554,ust-shonosha,80,RU,1552382278,94,61.15,41.34,26.91,13.0
555,troitsko-pechorsk,92,RU,1552382278,85,62.71,56.19,36.59,6.4
556,tucurui,88,BR,1552382280,99,-3.77,-49.67,72.27,2.48
557,sao felix do xingu,76,BR,1552382287,99,-6.64,-51.99,72.63,1.92
558,jijiga,0,ET,1552382290,19,9.35,42.8,82.98,6.96
559,adrar,0,DZ,1552377600,33,27.87,-0.29,57.2,14.99
560,shubarkuduk,12,KZ,1552382300,84,49.15,56.49,46.89,13.56
561,waitati,0,NZ,1552381907,74,-45.75,170.57,62.01,4.0
562,imbituba,40,BR,1552377600,94,-28.24,-48.67,69.8,7.29
563,dalvik,0,SE,1552382191,68,57.79,14.13,36.0,2.24
